[{"model": "dpa_chile.region", "pk": "01", "fields": {"tipo": "region", "nombre": "Tarapac\u00e1", "lat": "-20.164", "lng": "-69.5541", "url": ""}}, {"model": "dpa_chile.region", "pk": "02", "fields": {"tipo": "region", "nombre": "Antofagasta", "lat": "-23.7503", "lng": "-69.6", "url": ""}}, {"model": "dpa_chile.region", "pk": "03", "fields": {"tipo": "region", "nombre": "Atacama", "lat": "-27.5276", "lng": "-70.2494", "url": ""}}, {"model": "dpa_chile.region", "pk": "04", "fields": {"tipo": "region", "nombre": "Coquimbo", "lat": "-30.8301", "lng": "-70.9816", "url": ""}}, {"model": "dpa_chile.region", "pk": "05", "fields": {"tipo": "region", "nombre": "Valpara\u00edso", "lat": "-32.9039", "lng": "-71.0262", "url": ""}}, {"model": "dpa_chile.region", "pk": "06", "fields": {"tipo": "region", "nombre": "Del Libertador Gral. Bernardo O\u2019Higgins", "lat": "-34.4294", "lng": "-71.0393", "url": ""}}, {"model": "dpa_chile.region", "pk": "07", "fields": {"tipo": "region", "nombre": "Del Maule", "lat": "-35.5892", "lng": "-71.5007", "url": ""}}, {"model": "dpa_chile.region", "pk": "08", "fields": {"tipo": "region", "nombre": "Del Biob\u00edo", "lat": "-37.2442", "lng": "-72.4661", "url": ""}}, {"model": "dpa_chile.region", "pk": "09", "fields": {"tipo": "region", "nombre": "De la Araucan\u00eda", "lat": "-38.5505", "lng": "-72.4382", "url": ""}}, {"model": "dpa_chile.region", "pk": "10", "fields": {"tipo": "region", "nombre": "De los Lagos", "lat": "-42.1071", "lng": "-72.6425", "url": ""}}, {"model": "dpa_chile.region", "pk": "11", "fields": {"tipo": "region", "nombre": "Ays\u00e9n del Gral. Carlos Ib\u00e1\u00f1ez del Campo", "lat": "-46.2772", "lng": "-73.6628", "url": ""}}, {"model": "dpa_chile.region", "pk": "12", "fields": {"tipo": "region", "nombre": "Magallanes y de la Ant\u00e1rtica Chilena", "lat": "-54.3551", "lng": "-70.5284", "url": ""}}, {"model": "dpa_chile.region", "pk": "13", "fields": {"tipo": "region", "nombre": "Metropolitana de Santiago", "lat": "-33.4417", "lng": "-70.6541", "url": ""}}, {"model": "dpa_chile.region", "pk": "14", "fields": {"tipo": "region", "nombre": "De los R\u00edos", "lat": "-39.9086", "lng": "-72.7034", "url": ""}}, {"model": "dpa_chile.region", "pk": "15", "fields": {"tipo": "region", "nombre": "Arica y Parinacota", "lat": "-18.5075", "lng": "-69.6451", "url": ""}}, {"model": "dpa_chile.provincia", "pk": "011", "fields": {"tipo": "provincia", "nombre": "Iquique", "lat": "-20.8011", "lng": "-70.0963", "url": "", "region": "01"}}, {"model": "dpa_chile.provincia", "pk": "014", "fields": {"tipo": "provincia", "nombre": "Tamarugal", "lat": "-39.8567", "lng": "-72.6089", "url": "", "region": "01"}}, {"model": "dpa_chile.provincia", "pk": "021", "fields": {"tipo": "provincia", "nombre": "Antofagasta", "lat": "-24.5646", "lng": "-69.2877", "url": "", "region": "02"}}, {"model": "dpa_chile.provincia", "pk": "022", "fields": {"tipo": "provincia", "nombre": "El Loa", "lat": "-22.3196", "lng": "-68.5107", "url": "", "region": "02"}}, {"model": "dpa_chile.provincia", "pk": "023", "fields": {"tipo": "provincia", "nombre": "Tocopilla", "lat": "-22.2306", "lng": "-69.4666", "url": "", "region": "02"}}, {"model": "dpa_chile.provincia", "pk": "031", "fields": {"tipo": "provincia", "nombre": "Copiap\u00f3", "lat": "-27.5765", "lng": "-70.0269", "url": "", "region": "03"}}, {"model": "dpa_chile.provincia", "pk": "032", "fields": {"tipo": "provincia", "nombre": "Cha\u00f1aral", "lat": "-26.3599", "lng": "-70.5981", "url": "", "region": "03"}}, {"model": "dpa_chile.provincia", "pk": "033", "fields": {"tipo": "provincia", "nombre": "Huasco", "lat": "-28.5604", "lng": "-70.6146", "url": "", "region": "03"}}, {"model": "dpa_chile.provincia", "pk": "041", "fields": {"tipo": "provincia", "nombre": "Elqui", "lat": "-29.8335", "lng": "-70.8014", "url": "", "region": "04"}}, {"model": "dpa_chile.provincia", "pk": "042", "fields": {"tipo": "provincia", "nombre": "Choapa", "lat": "-31.8006", "lng": "-70.9827", "url": "", "region": "04"}}, {"model": "dpa_chile.provincia", "pk": "043", "fields": {"tipo": "provincia", "nombre": "Limar\u00ed", "lat": "-30.7342", "lng": "-70.9957", "url": "", "region": "04"}}, {"model": "dpa_chile.provincia", "pk": "051", "fields": {"tipo": "provincia", "nombre": "Valpara\u00edso", "lat": "-33.1381", "lng": "-71.5617", "url": "", "region": "05"}}, {"model": "dpa_chile.provincia", "pk": "052", "fields": {"tipo": "provincia", "nombre": "Isla de Pascua", "lat": "-27.1212", "lng": "-109.366", "url": "", "region": "05"}}, {"model": "dpa_chile.provincia", "pk": "053", "fields": {"tipo": "provincia", "nombre": "Los Andes", "lat": "-32.9544", "lng": "-70.3163", "url": "", "region": "05"}}, {"model": "dpa_chile.provincia", "pk": "054", "fields": {"tipo": "provincia", "nombre": "Petorca", "lat": "-32.1965", "lng": "-70.8318", "url": "", "region": "05"}}, {"model": "dpa_chile.provincia", "pk": "055", "fields": {"tipo": "provincia", "nombre": "Quillota", "lat": "-32.9009", "lng": "-71.2947", "url": "", "region": "05"}}, {"model": "dpa_chile.provincia", "pk": "056", "fields": {"tipo": "provincia", "nombre": "San Antonio", "lat": "-33.6648", "lng": "-71.4597", "url": "", "region": "05"}}, {"model": "dpa_chile.provincia", "pk": "057", "fields": {"tipo": "provincia", "nombre": "San Felipe de Aconcagua", "lat": "-32.7464", "lng": "-70.7489", "url": "", "region": "05"}}, {"model": "dpa_chile.provincia", "pk": "058", "fields": {"tipo": "provincia", "nombre": "Marga Marga", "lat": "-33.065", "lng": "-71.3711", "url": "", "region": "05"}}, {"model": "dpa_chile.provincia", "pk": "061", "fields": {"tipo": "provincia", "nombre": "Cachapoal", "lat": "-36.45", "lng": "-71.7333", "url": "", "region": "06"}}, {"model": "dpa_chile.provincia", "pk": "062", "fields": {"tipo": "provincia", "nombre": "Cardenal Caro", "lat": "-34.2812", "lng": "-71.8571", "url": "", "region": "06"}}, {"model": "dpa_chile.provincia", "pk": "063", "fields": {"tipo": "provincia", "nombre": "Colchagua", "lat": "-34.6761", "lng": "-71.0973", "url": "", "region": "06"}}, {"model": "dpa_chile.provincia", "pk": "071", "fields": {"tipo": "provincia", "nombre": "Talca", "lat": "-35.3921", "lng": "-71.6125", "url": "", "region": "07"}}, {"model": "dpa_chile.provincia", "pk": "072", "fields": {"tipo": "provincia", "nombre": "Cauquenes", "lat": "-35.9738", "lng": "-72.3142", "url": "", "region": "07"}}, {"model": "dpa_chile.provincia", "pk": "073", "fields": {"tipo": "provincia", "nombre": "Curic\u00f3", "lat": "-35.1704", "lng": "-70.8954", "url": "", "region": "07"}}, {"model": "dpa_chile.provincia", "pk": "074", "fields": {"tipo": "provincia", "nombre": "Linares", "lat": "-35.8495", "lng": "-71.585", "url": "", "region": "07"}}, {"model": "dpa_chile.provincia", "pk": "081", "fields": {"tipo": "provincia", "nombre": "Concepci\u00f3n", "lat": "-36.8148", "lng": "-73.0293", "url": "", "region": "08"}}, {"model": "dpa_chile.provincia", "pk": "082", "fields": {"tipo": "provincia", "nombre": "Arauco", "lat": "-37.7277", "lng": "-73.3075", "url": "", "region": "08"}}, {"model": "dpa_chile.provincia", "pk": "083", "fields": {"tipo": "provincia", "nombre": "Biob\u00edo", "lat": "-37.4739", "lng": "-72.1572", "url": "", "region": "08"}}, {"model": "dpa_chile.provincia", "pk": "084", "fields": {"tipo": "provincia", "nombre": "\u00d1uble", "lat": "-36.6191", "lng": "-72.0182", "url": "", "region": "08"}}, {"model": "dpa_chile.provincia", "pk": "091", "fields": {"tipo": "provincia", "nombre": "Caut\u00edn", "lat": "-38.727", "lng": "-72.5989", "url": "", "region": "09"}}, {"model": "dpa_chile.provincia", "pk": "092", "fields": {"tipo": "provincia", "nombre": "Malleco", "lat": "-37.803", "lng": "-72.7017", "url": "", "region": "09"}}, {"model": "dpa_chile.provincia", "pk": "101", "fields": {"tipo": "provincia", "nombre": "Llanquihue", "lat": "-41.453", "lng": "-72.6135", "url": "", "region": "10"}}, {"model": "dpa_chile.provincia", "pk": "102", "fields": {"tipo": "provincia", "nombre": "Chilo\u00e9", "lat": "-43.117", "lng": "-73.9984", "url": "", "region": "10"}}, {"model": "dpa_chile.provincia", "pk": "103", "fields": {"tipo": "provincia", "nombre": "Osorno", "lat": "-40.7369", "lng": "-72.9849", "url": "", "region": "10"}}, {"model": "dpa_chile.provincia", "pk": "104", "fields": {"tipo": "provincia", "nombre": "Palena", "lat": "-43.4449", "lng": "-72.0923", "url": "", "region": "10"}}, {"model": "dpa_chile.provincia", "pk": "111", "fields": {"tipo": "provincia", "nombre": "Coihaique", "lat": "-45.2865", "lng": "-71.7792", "url": "", "region": "11"}}, {"model": "dpa_chile.provincia", "pk": "112", "fields": {"tipo": "provincia", "nombre": "Ays\u00e9n", "lat": "-46.3848", "lng": "-72.2955", "url": "", "region": "11"}}, {"model": "dpa_chile.provincia", "pk": "113", "fields": {"tipo": "provincia", "nombre": "Capit\u00e1n Prat", "lat": "-47.9232", "lng": "-72.9245", "url": "", "region": "11"}}, {"model": "dpa_chile.provincia", "pk": "114", "fields": {"tipo": "provincia", "nombre": "General Carrera", "lat": "-46.557", "lng": "-72.4123", "url": "", "region": "11"}}, {"model": "dpa_chile.provincia", "pk": "121", "fields": {"tipo": "provincia", "nombre": "Magallanes", "lat": "-53.6316", "lng": "-71.5924", "url": "", "region": "12"}}, {"model": "dpa_chile.provincia", "pk": "122", "fields": {"tipo": "provincia", "nombre": "Ant\u00e1rtica Chilena", "lat": "-55.028", "lng": "-67.6318", "url": "", "region": "12"}}, {"model": "dpa_chile.provincia", "pk": "123", "fields": {"tipo": "provincia", "nombre": "Tierra del Fuego", "lat": "-53.7422", "lng": "-69.2249", "url": "", "region": "12"}}, {"model": "dpa_chile.provincia", "pk": "124", "fields": {"tipo": "provincia", "nombre": "\u00daltima Esperanza", "lat": "-51.0163", "lng": "-73.4285", "url": "", "region": "12"}}, {"model": "dpa_chile.provincia", "pk": "131", "fields": {"tipo": "provincia", "nombre": "Santiago", "lat": "-33.4417", "lng": "-70.6541", "url": "", "region": "13"}}, {"model": "dpa_chile.provincia", "pk": "132", "fields": {"tipo": "provincia", "nombre": "Cordillera", "lat": "-33.6984", "lng": "-70.1682", "url": "", "region": "13"}}, {"model": "dpa_chile.provincia", "pk": "133", "fields": {"tipo": "provincia", "nombre": "Chacabuco", "lat": "-33.1503", "lng": "-70.7132", "url": "", "region": "13"}}, {"model": "dpa_chile.provincia", "pk": "134", "fields": {"tipo": "provincia", "nombre": "Maipo", "lat": "-33.7963", "lng": "-70.7353", "url": "", "region": "13"}}, {"model": "dpa_chile.provincia", "pk": "135", "fields": {"tipo": "provincia", "nombre": "Melipilla", "lat": "-33.7369", "lng": "-71.1743", "url": "", "region": "13"}}, {"model": "dpa_chile.provincia", "pk": "136", "fields": {"tipo": "provincia", "nombre": "Talagante", "lat": "-33.6665", "lng": "-70.9331", "url": "", "region": "13"}}, {"model": "dpa_chile.provincia", "pk": "141", "fields": {"tipo": "provincia", "nombre": "Valdivia", "lat": "-39.7811", "lng": "-72.5098", "url": "", "region": "14"}}, {"model": "dpa_chile.provincia", "pk": "142", "fields": {"tipo": "provincia", "nombre": "Ranco", "lat": "-40.4114", "lng": "-72.4988", "url": "", "region": "14"}}, {"model": "dpa_chile.provincia", "pk": "151", "fields": {"tipo": "provincia", "nombre": "Arica", "lat": "-18.7139", "lng": "-69.7522", "url": "", "region": "15"}}, {"model": "dpa_chile.provincia", "pk": "152", "fields": {"tipo": "provincia", "nombre": "Parinacota", "lat": "-18.3135", "lng": "-69.3788", "url": "", "region": "15"}}, {"model": "dpa_chile.comuna", "pk": "01101", "fields": {"tipo": "comuna", "nombre": "Iquique", "lat": "-20.2232", "lng": "-70.1463", "url": "", "region": "01", "provincia": "011"}}, {"model": "dpa_chile.comuna", "pk": "01107", "fields": {"tipo": "comuna", "nombre": "Alto Hospicio", "lat": "-20.2677", "lng": "-70.1007", "url": "", "region": "01", "provincia": "011"}}, {"model": "dpa_chile.comuna", "pk": "01401", "fields": {"tipo": "comuna", "nombre": "Pozo Almonte", "lat": "-20.2532", "lng": "-69.7848", "url": "", "region": "01", "provincia": "014"}}, {"model": "dpa_chile.comuna", "pk": "01402", "fields": {"tipo": "comuna", "nombre": "Cami\u00f1a", "lat": "-19.3118", "lng": "-69.4264", "url": "", "region": "01", "provincia": "014"}}, {"model": "dpa_chile.comuna", "pk": "01403", "fields": {"tipo": "comuna", "nombre": "Colchane", "lat": "-19.2787", "lng": "-68.6343", "url": "", "region": "01", "provincia": "014"}}, {"model": "dpa_chile.comuna", "pk": "01404", "fields": {"tipo": "comuna", "nombre": "Huara", "lat": "-19.9963", "lng": "-69.7718", "url": "", "region": "01", "provincia": "014"}}, {"model": "dpa_chile.comuna", "pk": "01405", "fields": {"tipo": "comuna", "nombre": "Pica", "lat": "-20.4889", "lng": "-69.3289", "url": "", "region": "01", "provincia": "014"}}, {"model": "dpa_chile.comuna", "pk": "02101", "fields": {"tipo": "comuna", "nombre": "Antofagasta", "lat": "-23.6499", "lng": "-70.4069", "url": "", "region": "02", "provincia": "021"}}, {"model": "dpa_chile.comuna", "pk": "02102", "fields": {"tipo": "comuna", "nombre": "Mejillones", "lat": "-23.0962", "lng": "-70.4498", "url": "", "region": "02", "provincia": "021"}}, {"model": "dpa_chile.comuna", "pk": "02103", "fields": {"tipo": "comuna", "nombre": "Sierra Gorda", "lat": "-22.8921", "lng": "-69.3203", "url": "", "region": "02", "provincia": "021"}}, {"model": "dpa_chile.comuna", "pk": "02104", "fields": {"tipo": "comuna", "nombre": "Taltal", "lat": "-25.4054", "lng": "-70.4826", "url": "", "region": "02", "provincia": "021"}}, {"model": "dpa_chile.comuna", "pk": "02201", "fields": {"tipo": "comuna", "nombre": "Calama", "lat": "-22.4542", "lng": "-68.9337", "url": "", "region": "02", "provincia": "022"}}, {"model": "dpa_chile.comuna", "pk": "02202", "fields": {"tipo": "comuna", "nombre": "Ollag\u00fce", "lat": "-21.2238", "lng": "-68.2529", "url": "", "region": "02", "provincia": "022"}}, {"model": "dpa_chile.comuna", "pk": "02203", "fields": {"tipo": "comuna", "nombre": "San Pedro de Atacama", "lat": "-22.9157", "lng": "-68.2004", "url": "", "region": "02", "provincia": "022"}}, {"model": "dpa_chile.comuna", "pk": "02301", "fields": {"tipo": "comuna", "nombre": "Tocopilla", "lat": "-22.0858", "lng": "-70.193", "url": "", "region": "02", "provincia": "023"}}, {"model": "dpa_chile.comuna", "pk": "02302", "fields": {"tipo": "comuna", "nombre": "Mar\u00eda Elena", "lat": "-22.1639", "lng": "-69.4171", "url": "", "region": "02", "provincia": "023"}}, {"model": "dpa_chile.comuna", "pk": "03101", "fields": {"tipo": "comuna", "nombre": "Copiap\u00f3", "lat": "-27.3654", "lng": "-70.3314", "url": "", "region": "03", "provincia": "031"}}, {"model": "dpa_chile.comuna", "pk": "03102", "fields": {"tipo": "comuna", "nombre": "Caldera", "lat": "-27.0668", "lng": "-70.817", "url": "", "region": "03", "provincia": "031"}}, {"model": "dpa_chile.comuna", "pk": "03103", "fields": {"tipo": "comuna", "nombre": "Tierra Amarilla", "lat": "-27.4877", "lng": "-70.2696", "url": "", "region": "03", "provincia": "031"}}, {"model": "dpa_chile.comuna", "pk": "03201", "fields": {"tipo": "comuna", "nombre": "Cha\u00f1aral", "lat": "-26.3425", "lng": "-70.6107", "url": "", "region": "03", "provincia": "032"}}, {"model": "dpa_chile.comuna", "pk": "03202", "fields": {"tipo": "comuna", "nombre": "Diego de Almagro", "lat": "-26.3771", "lng": "-70.0488", "url": "", "region": "03", "provincia": "032"}}, {"model": "dpa_chile.comuna", "pk": "03301", "fields": {"tipo": "comuna", "nombre": "Vallenar", "lat": "-28.5777", "lng": "-70.7566", "url": "", "region": "03", "provincia": "033"}}, {"model": "dpa_chile.comuna", "pk": "03302", "fields": {"tipo": "comuna", "nombre": "Alto del Carmen", "lat": "-28.7508", "lng": "-70.4883", "url": "", "region": "03", "provincia": "033"}}, {"model": "dpa_chile.comuna", "pk": "03303", "fields": {"tipo": "comuna", "nombre": "Freirina", "lat": "-28.5001", "lng": "-71.076", "url": "", "region": "03", "provincia": "033"}}, {"model": "dpa_chile.comuna", "pk": "03304", "fields": {"tipo": "comuna", "nombre": "Huasco", "lat": "-28.4518", "lng": "-71.2244", "url": "", "region": "03", "provincia": "033"}}, {"model": "dpa_chile.comuna", "pk": "04101", "fields": {"tipo": "comuna", "nombre": "La Serena", "lat": "-29.8966", "lng": "-71.2422", "url": "", "region": "04", "provincia": "041"}}, {"model": "dpa_chile.comuna", "pk": "04102", "fields": {"tipo": "comuna", "nombre": "Coquimbo", "lat": "-29.968", "lng": "-71.337", "url": "", "region": "04", "provincia": "041"}}, {"model": "dpa_chile.comuna", "pk": "04103", "fields": {"tipo": "comuna", "nombre": "Andacollo", "lat": "-30.2357", "lng": "-71.0828", "url": "", "region": "04", "provincia": "041"}}, {"model": "dpa_chile.comuna", "pk": "04104", "fields": {"tipo": "comuna", "nombre": "La Higuera", "lat": "-29.497", "lng": "-71.2656", "url": "", "region": "04", "provincia": "041"}}, {"model": "dpa_chile.comuna", "pk": "04105", "fields": {"tipo": "comuna", "nombre": "Paiguano", "lat": "-30.2496", "lng": "-70.3832", "url": "", "region": "04", "provincia": "041"}}, {"model": "dpa_chile.comuna", "pk": "04106", "fields": {"tipo": "comuna", "nombre": "Vicu\u00f1a", "lat": "-30.0287", "lng": "-70.7108", "url": "", "region": "04", "provincia": "041"}}, {"model": "dpa_chile.comuna", "pk": "04201", "fields": {"tipo": "comuna", "nombre": "Illapel", "lat": "-31.6242", "lng": "-71.1626", "url": "", "region": "04", "provincia": "042"}}, {"model": "dpa_chile.comuna", "pk": "04202", "fields": {"tipo": "comuna", "nombre": "Canela", "lat": "-31.3935", "lng": "-71.4578", "url": "", "region": "04", "provincia": "042"}}, {"model": "dpa_chile.comuna", "pk": "04203", "fields": {"tipo": "comuna", "nombre": "Los Vilos", "lat": "-31.9157", "lng": "-71.5107", "url": "", "region": "04", "provincia": "042"}}, {"model": "dpa_chile.comuna", "pk": "04204", "fields": {"tipo": "comuna", "nombre": "Salamanca", "lat": "-31.7737", "lng": "-70.9717", "url": "", "region": "04", "provincia": "042"}}, {"model": "dpa_chile.comuna", "pk": "04301", "fields": {"tipo": "comuna", "nombre": "Ovalle", "lat": "-30.5942", "lng": "-71.1983", "url": "", "region": "04", "provincia": "043"}}, {"model": "dpa_chile.comuna", "pk": "04302", "fields": {"tipo": "comuna", "nombre": "Combarbal\u00e1", "lat": "-31.1764", "lng": "-70.9978", "url": "", "region": "04", "provincia": "043"}}, {"model": "dpa_chile.comuna", "pk": "04303", "fields": {"tipo": "comuna", "nombre": "Monte Patria", "lat": "-30.8291", "lng": "-70.6984", "url": "", "region": "04", "provincia": "043"}}, {"model": "dpa_chile.comuna", "pk": "04304", "fields": {"tipo": "comuna", "nombre": "Punitaqui", "lat": "-30.8256", "lng": "-71.2585", "url": "", "region": "04", "provincia": "043"}}, {"model": "dpa_chile.comuna", "pk": "04305", "fields": {"tipo": "comuna", "nombre": "R\u00edo Hurtado", "lat": "-30.2603", "lng": "-70.6668", "url": "", "region": "04", "provincia": "043"}}, {"model": "dpa_chile.comuna", "pk": "05101", "fields": {"tipo": "comuna", "nombre": "Valpara\u00edso", "lat": "-33.0436", "lng": "-71.6231", "url": "", "region": "05", "provincia": "051"}}, {"model": "dpa_chile.comuna", "pk": "05102", "fields": {"tipo": "comuna", "nombre": "Casablanca", "lat": "-33.3262", "lng": "-71.3983", "url": "", "region": "05", "provincia": "051"}}, {"model": "dpa_chile.comuna", "pk": "05103", "fields": {"tipo": "comuna", "nombre": "Conc\u00f3n", "lat": "-32.9305", "lng": "-71.5191", "url": "", "region": "05", "provincia": "051"}}, {"model": "dpa_chile.comuna", "pk": "05104", "fields": {"tipo": "comuna", "nombre": "Juan Fern\u00e1ndez", "lat": "-33.6167", "lng": "-78.8667", "url": "", "region": "05", "provincia": "051"}}, {"model": "dpa_chile.comuna", "pk": "05105", "fields": {"tipo": "comuna", "nombre": "Puchuncav\u00ed", "lat": "-32.7499", "lng": "-71.396", "url": "", "region": "05", "provincia": "051"}}, {"model": "dpa_chile.comuna", "pk": "05107", "fields": {"tipo": "comuna", "nombre": "Quintero", "lat": "-32.7872", "lng": "-71.5274", "url": "", "region": "05", "provincia": "051"}}, {"model": "dpa_chile.comuna", "pk": "05109", "fields": {"tipo": "comuna", "nombre": "Vi\u00f1a del Mar", "lat": "-33.0445", "lng": "-71.5224", "url": "", "region": "05", "provincia": "051"}}, {"model": "dpa_chile.comuna", "pk": "05201", "fields": {"tipo": "comuna", "nombre": "Isla de Pascua", "lat": "-27.1504", "lng": "-109.423", "url": "", "region": "05", "provincia": "052"}}, {"model": "dpa_chile.comuna", "pk": "05301", "fields": {"tipo": "comuna", "nombre": "Los Andes", "lat": "-32.8347", "lng": "-70.5971", "url": "", "region": "05", "provincia": "053"}}, {"model": "dpa_chile.comuna", "pk": "05302", "fields": {"tipo": "comuna", "nombre": "Calle Larga", "lat": "-32.9514", "lng": "-70.5524", "url": "", "region": "05", "provincia": "053"}}, {"model": "dpa_chile.comuna", "pk": "05303", "fields": {"tipo": "comuna", "nombre": "Rinconada", "lat": "-32.8765", "lng": "-70.7085", "url": "", "region": "05", "provincia": "053"}}, {"model": "dpa_chile.comuna", "pk": "05304", "fields": {"tipo": "comuna", "nombre": "San Esteban", "lat": "-32.693", "lng": "-70.3703", "url": "", "region": "05", "provincia": "053"}}, {"model": "dpa_chile.comuna", "pk": "05401", "fields": {"tipo": "comuna", "nombre": "La Ligua", "lat": "-32.449", "lng": "-71.2309", "url": "", "region": "05", "provincia": "054"}}, {"model": "dpa_chile.comuna", "pk": "05402", "fields": {"tipo": "comuna", "nombre": "Cabildo", "lat": "-32.4095", "lng": "-71.0798", "url": "", "region": "05", "provincia": "054"}}, {"model": "dpa_chile.comuna", "pk": "05403", "fields": {"tipo": "comuna", "nombre": "Papudo", "lat": "-32.4699", "lng": "-71.3842", "url": "", "region": "05", "provincia": "054"}}, {"model": "dpa_chile.comuna", "pk": "05404", "fields": {"tipo": "comuna", "nombre": "Petorca", "lat": "-32.1965", "lng": "-70.8318", "url": "", "region": "05", "provincia": "054"}}, {"model": "dpa_chile.comuna", "pk": "05405", "fields": {"tipo": "comuna", "nombre": "Zapallar", "lat": "-32.5933", "lng": "-71.3686", "url": "", "region": "05", "provincia": "054"}}, {"model": "dpa_chile.comuna", "pk": "05501", "fields": {"tipo": "comuna", "nombre": "Quillota", "lat": "-32.8793", "lng": "-71.2508", "url": "", "region": "05", "provincia": "055"}}, {"model": "dpa_chile.comuna", "pk": "05502", "fields": {"tipo": "comuna", "nombre": "Calera", "lat": "-32.7837", "lng": "-71.1586", "url": "", "region": "05", "provincia": "055"}}, {"model": "dpa_chile.comuna", "pk": "05503", "fields": {"tipo": "comuna", "nombre": "Hijuelas", "lat": "-32.8671", "lng": "-71.0929", "url": "", "region": "05", "provincia": "055"}}, {"model": "dpa_chile.comuna", "pk": "05504", "fields": {"tipo": "comuna", "nombre": "La Cruz", "lat": "-32.8258", "lng": "-71.2592", "url": "", "region": "05", "provincia": "055"}}, {"model": "dpa_chile.comuna", "pk": "05506", "fields": {"tipo": "comuna", "nombre": "Nogales", "lat": "-32.6923", "lng": "-71.1894", "url": "", "region": "05", "provincia": "055"}}, {"model": "dpa_chile.comuna", "pk": "05601", "fields": {"tipo": "comuna", "nombre": "San Antonio", "lat": "-33.5812", "lng": "-71.613", "url": "", "region": "05", "provincia": "056"}}, {"model": "dpa_chile.comuna", "pk": "05602", "fields": {"tipo": "comuna", "nombre": "Algarrobo", "lat": "-33.3332", "lng": "-71.6023", "url": "", "region": "05", "provincia": "056"}}, {"model": "dpa_chile.comuna", "pk": "05603", "fields": {"tipo": "comuna", "nombre": "Cartagena", "lat": "-33.5341", "lng": "-71.4628", "url": "", "region": "05", "provincia": "056"}}, {"model": "dpa_chile.comuna", "pk": "05604", "fields": {"tipo": "comuna", "nombre": "El Quisco", "lat": "-33.4156", "lng": "-71.6556", "url": "", "region": "05", "provincia": "056"}}, {"model": "dpa_chile.comuna", "pk": "05605", "fields": {"tipo": "comuna", "nombre": "El Tabo", "lat": "-33.4847", "lng": "-71.5862", "url": "", "region": "05", "provincia": "056"}}, {"model": "dpa_chile.comuna", "pk": "05606", "fields": {"tipo": "comuna", "nombre": "Santo Domingo", "lat": "-33.7076", "lng": "-71.6301", "url": "", "region": "05", "provincia": "056"}}, {"model": "dpa_chile.comuna", "pk": "05701", "fields": {"tipo": "comuna", "nombre": "San Felipe", "lat": "-32.7464", "lng": "-70.7489", "url": "", "region": "05", "provincia": "057"}}, {"model": "dpa_chile.comuna", "pk": "05702", "fields": {"tipo": "comuna", "nombre": "Catemu", "lat": "-32.6981", "lng": "-70.956", "url": "", "region": "05", "provincia": "057"}}, {"model": "dpa_chile.comuna", "pk": "05703", "fields": {"tipo": "comuna", "nombre": "Llaillay", "lat": "-32.8899", "lng": "-70.8942", "url": "", "region": "05", "provincia": "057"}}, {"model": "dpa_chile.comuna", "pk": "05704", "fields": {"tipo": "comuna", "nombre": "Panquehue", "lat": "-32.8079", "lng": "-70.8428", "url": "", "region": "05", "provincia": "057"}}, {"model": "dpa_chile.comuna", "pk": "05705", "fields": {"tipo": "comuna", "nombre": "Putaendo", "lat": "-32.6279", "lng": "-70.7165", "url": "", "region": "05", "provincia": "057"}}, {"model": "dpa_chile.comuna", "pk": "05706", "fields": {"tipo": "comuna", "nombre": "Santa Mar\u00eda", "lat": "-32.7446", "lng": "-70.654", "url": "", "region": "05", "provincia": "057"}}, {"model": "dpa_chile.comuna", "pk": "05801", "fields": {"tipo": "comuna", "nombre": "Quilpu\u00e9", "lat": "-33.0492", "lng": "-71.4435", "url": "", "region": "05", "provincia": "058"}}, {"model": "dpa_chile.comuna", "pk": "05802", "fields": {"tipo": "comuna", "nombre": "Limache", "lat": "-33.0035", "lng": "-71.2613", "url": "", "region": "05", "provincia": "058"}}, {"model": "dpa_chile.comuna", "pk": "05803", "fields": {"tipo": "comuna", "nombre": "Olmu\u00e9", "lat": "-33.0132", "lng": "-71.1525", "url": "", "region": "05", "provincia": "058"}}, {"model": "dpa_chile.comuna", "pk": "05804", "fields": {"tipo": "comuna", "nombre": "Villa Alemana", "lat": "-33.0429", "lng": "-71.3724", "url": "", "region": "05", "provincia": "058"}}, {"model": "dpa_chile.comuna", "pk": "06101", "fields": {"tipo": "comuna", "nombre": "Rancagua", "lat": "-34.162", "lng": "-70.741", "url": "", "region": "06", "provincia": "061"}}, {"model": "dpa_chile.comuna", "pk": "06102", "fields": {"tipo": "comuna", "nombre": "Codegua", "lat": "-34.0442", "lng": "-70.5131", "url": "", "region": "06", "provincia": "061"}}, {"model": "dpa_chile.comuna", "pk": "06103", "fields": {"tipo": "comuna", "nombre": "Coinco", "lat": "-34.2918", "lng": "-70.9706", "url": "", "region": "06", "provincia": "061"}}, {"model": "dpa_chile.comuna", "pk": "06104", "fields": {"tipo": "comuna", "nombre": "Coltauco", "lat": "-34.2498", "lng": "-71.0791", "url": "", "region": "06", "provincia": "061"}}, {"model": "dpa_chile.comuna", "pk": "06105", "fields": {"tipo": "comuna", "nombre": "Do\u00f1ihue", "lat": "-34.2024", "lng": "-70.9325", "url": "", "region": "06", "provincia": "061"}}, {"model": "dpa_chile.comuna", "pk": "06106", "fields": {"tipo": "comuna", "nombre": "Graneros", "lat": "-34.0709", "lng": "-70.7501", "url": "", "region": "06", "provincia": "061"}}, {"model": "dpa_chile.comuna", "pk": "06107", "fields": {"tipo": "comuna", "nombre": "Las Cabras", "lat": "-34.2945", "lng": "-71.3066", "url": "", "region": "06", "provincia": "061"}}, {"model": "dpa_chile.comuna", "pk": "06108", "fields": {"tipo": "comuna", "nombre": "Machal\u00ed", "lat": "-34.2938", "lng": "-70.3371", "url": "", "region": "06", "provincia": "061"}}, {"model": "dpa_chile.comuna", "pk": "06109", "fields": {"tipo": "comuna", "nombre": "Malloa", "lat": "-34.4455", "lng": "-70.9449", "url": "", "region": "06", "provincia": "061"}}, {"model": "dpa_chile.comuna", "pk": "06110", "fields": {"tipo": "comuna", "nombre": "Mostazal", "lat": "-33.9772", "lng": "-70.7092", "url": "", "region": "06", "provincia": "061"}}, {"model": "dpa_chile.comuna", "pk": "06111", "fields": {"tipo": "comuna", "nombre": "Olivar", "lat": "-34.2186", "lng": "-70.8355", "url": "", "region": "06", "provincia": "061"}}, {"model": "dpa_chile.comuna", "pk": "06112", "fields": {"tipo": "comuna", "nombre": "Peumo", "lat": "-34.3798", "lng": "-71.1687", "url": "", "region": "06", "provincia": "061"}}, {"model": "dpa_chile.comuna", "pk": "06113", "fields": {"tipo": "comuna", "nombre": "Pichidegua", "lat": "-34.3758", "lng": "-71.3469", "url": "", "region": "06", "provincia": "061"}}, {"model": "dpa_chile.comuna", "pk": "06114", "fields": {"tipo": "comuna", "nombre": "Quinta de Tilcoco", "lat": "-34.367", "lng": "-71.0096", "url": "", "region": "06", "provincia": "061"}}, {"model": "dpa_chile.comuna", "pk": "06115", "fields": {"tipo": "comuna", "nombre": "Rengo", "lat": "-34.4017", "lng": "-70.8561", "url": "", "region": "06", "provincia": "061"}}, {"model": "dpa_chile.comuna", "pk": "06116", "fields": {"tipo": "comuna", "nombre": "Requ\u00ednoa", "lat": "-34.3533", "lng": "-70.6797", "url": "", "region": "06", "provincia": "061"}}, {"model": "dpa_chile.comuna", "pk": "06117", "fields": {"tipo": "comuna", "nombre": "San Vicente", "lat": "-34.4381", "lng": "-71.0792", "url": "", "region": "06", "provincia": "061"}}, {"model": "dpa_chile.comuna", "pk": "06201", "fields": {"tipo": "comuna", "nombre": "Pichilemu", "lat": "-34.3869", "lng": "-72.0032", "url": "", "region": "06", "provincia": "062"}}, {"model": "dpa_chile.comuna", "pk": "06202", "fields": {"tipo": "comuna", "nombre": "La Estrella", "lat": "-34.2037", "lng": "-71.6073", "url": "", "region": "06", "provincia": "062"}}, {"model": "dpa_chile.comuna", "pk": "06203", "fields": {"tipo": "comuna", "nombre": "Litueche", "lat": "-34.1069", "lng": "-71.7204", "url": "", "region": "06", "provincia": "062"}}, {"model": "dpa_chile.comuna", "pk": "06204", "fields": {"tipo": "comuna", "nombre": "Marchihue", "lat": "-34.3979", "lng": "-71.6144", "url": "", "region": "06", "provincia": "062"}}, {"model": "dpa_chile.comuna", "pk": "06205", "fields": {"tipo": "comuna", "nombre": "Navidad", "lat": "-34.0068", "lng": "-71.8101", "url": "", "region": "06", "provincia": "062"}}, {"model": "dpa_chile.comuna", "pk": "06206", "fields": {"tipo": "comuna", "nombre": "Paredones", "lat": "-34.6972", "lng": "-71.8978", "url": "", "region": "06", "provincia": "062"}}, {"model": "dpa_chile.comuna", "pk": "06301", "fields": {"tipo": "comuna", "nombre": "San Fernando", "lat": "-34.584", "lng": "-70.9874", "url": "", "region": "06", "provincia": "063"}}, {"model": "dpa_chile.comuna", "pk": "06302", "fields": {"tipo": "comuna", "nombre": "Ch\u00e9pica", "lat": "-34.7303", "lng": "-71.2688", "url": "", "region": "06", "provincia": "063"}}, {"model": "dpa_chile.comuna", "pk": "06303", "fields": {"tipo": "comuna", "nombre": "Chimbarongo", "lat": "-34.7552", "lng": "-70.9753", "url": "", "region": "06", "provincia": "063"}}, {"model": "dpa_chile.comuna", "pk": "06304", "fields": {"tipo": "comuna", "nombre": "Lolol", "lat": "-34.7689", "lng": "-71.6453", "url": "", "region": "06", "provincia": "063"}}, {"model": "dpa_chile.comuna", "pk": "06305", "fields": {"tipo": "comuna", "nombre": "Nancagua", "lat": "-34.6615", "lng": "-71.1749", "url": "", "region": "06", "provincia": "063"}}, {"model": "dpa_chile.comuna", "pk": "06306", "fields": {"tipo": "comuna", "nombre": "Palmilla", "lat": "-34.6042", "lng": "-71.3583", "url": "", "region": "06", "provincia": "063"}}, {"model": "dpa_chile.comuna", "pk": "06307", "fields": {"tipo": "comuna", "nombre": "Peralillo", "lat": "-34.4593", "lng": "-71.5", "url": "", "region": "06", "provincia": "063"}}, {"model": "dpa_chile.comuna", "pk": "06308", "fields": {"tipo": "comuna", "nombre": "Placilla", "lat": "-34.6135", "lng": "-71.0951", "url": "", "region": "06", "provincia": "063"}}, {"model": "dpa_chile.comuna", "pk": "06309", "fields": {"tipo": "comuna", "nombre": "Pumanque", "lat": "-34.6052", "lng": "-71.6443", "url": "", "region": "06", "provincia": "063"}}, {"model": "dpa_chile.comuna", "pk": "06310", "fields": {"tipo": "comuna", "nombre": "Santa Cruz", "lat": "-34.6383", "lng": "-71.367", "url": "", "region": "06", "provincia": "063"}}, {"model": "dpa_chile.comuna", "pk": "07101", "fields": {"tipo": "comuna", "nombre": "Talca", "lat": "-35.4288", "lng": "-71.6607", "url": "", "region": "07", "provincia": "071"}}, {"model": "dpa_chile.comuna", "pk": "07102", "fields": {"tipo": "comuna", "nombre": "Constituci\u00f3n", "lat": "-35.3309", "lng": "-72.4139", "url": "", "region": "07", "provincia": "071"}}, {"model": "dpa_chile.comuna", "pk": "07103", "fields": {"tipo": "comuna", "nombre": "Curepto", "lat": "-35.091", "lng": "-72.0216", "url": "", "region": "07", "provincia": "071"}}, {"model": "dpa_chile.comuna", "pk": "07104", "fields": {"tipo": "comuna", "nombre": "Empedrado", "lat": "-35.6213", "lng": "-72.2473", "url": "", "region": "07", "provincia": "071"}}, {"model": "dpa_chile.comuna", "pk": "07105", "fields": {"tipo": "comuna", "nombre": "Maule", "lat": "-35.5057", "lng": "-71.7069", "url": "", "region": "07", "provincia": "071"}}, {"model": "dpa_chile.comuna", "pk": "07106", "fields": {"tipo": "comuna", "nombre": "Pelarco", "lat": "-35.3723", "lng": "-71.3278", "url": "", "region": "07", "provincia": "071"}}, {"model": "dpa_chile.comuna", "pk": "07107", "fields": {"tipo": "comuna", "nombre": "Pencahue", "lat": "-35.3051", "lng": "-71.8284", "url": "", "region": "07", "provincia": "071"}}, {"model": "dpa_chile.comuna", "pk": "07108", "fields": {"tipo": "comuna", "nombre": "R\u00edo Claro", "lat": "-35.2827", "lng": "-71.2665", "url": "", "region": "07", "provincia": "071"}}, {"model": "dpa_chile.comuna", "pk": "07109", "fields": {"tipo": "comuna", "nombre": "San Clemente", "lat": "-35.534", "lng": "-71.4865", "url": "", "region": "07", "provincia": "071"}}, {"model": "dpa_chile.comuna", "pk": "07110", "fields": {"tipo": "comuna", "nombre": "San Rafael", "lat": "-35.2942", "lng": "-71.5254", "url": "", "region": "07", "provincia": "071"}}, {"model": "dpa_chile.comuna", "pk": "07201", "fields": {"tipo": "comuna", "nombre": "Cauquenes", "lat": "-35.9738", "lng": "-72.3142", "url": "", "region": "07", "provincia": "072"}}, {"model": "dpa_chile.comuna", "pk": "07202", "fields": {"tipo": "comuna", "nombre": "Chanco", "lat": "-35.7337", "lng": "-72.5333", "url": "", "region": "07", "provincia": "072"}}, {"model": "dpa_chile.comuna", "pk": "07203", "fields": {"tipo": "comuna", "nombre": "Pelluhue", "lat": "-35.8145", "lng": "-72.5736", "url": "", "region": "07", "provincia": "072"}}, {"model": "dpa_chile.comuna", "pk": "07301", "fields": {"tipo": "comuna", "nombre": "Curic\u00f3", "lat": "-34.9756", "lng": "-71.2235", "url": "", "region": "07", "provincia": "073"}}, {"model": "dpa_chile.comuna", "pk": "07302", "fields": {"tipo": "comuna", "nombre": "Huala\u00f1\u00e9", "lat": "-34.9762", "lng": "-71.8043", "url": "", "region": "07", "provincia": "073"}}, {"model": "dpa_chile.comuna", "pk": "07303", "fields": {"tipo": "comuna", "nombre": "Licant\u00e9n", "lat": "-34.9591", "lng": "-72.0269", "url": "", "region": "07", "provincia": "073"}}, {"model": "dpa_chile.comuna", "pk": "07304", "fields": {"tipo": "comuna", "nombre": "Molina", "lat": "-35.0896", "lng": "-71.2788", "url": "", "region": "07", "provincia": "073"}}, {"model": "dpa_chile.comuna", "pk": "07305", "fields": {"tipo": "comuna", "nombre": "Rauco", "lat": "-34.9295", "lng": "-71.3111", "url": "", "region": "07", "provincia": "073"}}, {"model": "dpa_chile.comuna", "pk": "07306", "fields": {"tipo": "comuna", "nombre": "Romeral", "lat": "-34.9634", "lng": "-71.1205", "url": "", "region": "07", "provincia": "073"}}, {"model": "dpa_chile.comuna", "pk": "07307", "fields": {"tipo": "comuna", "nombre": "Sagrada Familia", "lat": "-34.9949", "lng": "-71.3798", "url": "", "region": "07", "provincia": "073"}}, {"model": "dpa_chile.comuna", "pk": "07308", "fields": {"tipo": "comuna", "nombre": "Teno", "lat": "-34.8701", "lng": "-71.0895", "url": "", "region": "07", "provincia": "073"}}, {"model": "dpa_chile.comuna", "pk": "07309", "fields": {"tipo": "comuna", "nombre": "Vichuqu\u00e9n", "lat": "-34.8594", "lng": "-72.0074", "url": "", "region": "07", "provincia": "073"}}, {"model": "dpa_chile.comuna", "pk": "07401", "fields": {"tipo": "comuna", "nombre": "Linares", "lat": "-35.8495", "lng": "-71.585", "url": "", "region": "07", "provincia": "074"}}, {"model": "dpa_chile.comuna", "pk": "07402", "fields": {"tipo": "comuna", "nombre": "Colb\u00fan", "lat": "-35.6927", "lng": "-71.4067", "url": "", "region": "07", "provincia": "074"}}, {"model": "dpa_chile.comuna", "pk": "07403", "fields": {"tipo": "comuna", "nombre": "Longav\u00ed", "lat": "-35.9657", "lng": "-71.6816", "url": "", "region": "07", "provincia": "074"}}, {"model": "dpa_chile.comuna", "pk": "07404", "fields": {"tipo": "comuna", "nombre": "Parral", "lat": "-36.14", "lng": "-71.8244", "url": "", "region": "07", "provincia": "074"}}, {"model": "dpa_chile.comuna", "pk": "07405", "fields": {"tipo": "comuna", "nombre": "Retiro", "lat": "-36.0458", "lng": "-71.7591", "url": "", "region": "07", "provincia": "074"}}, {"model": "dpa_chile.comuna", "pk": "07406", "fields": {"tipo": "comuna", "nombre": "San Javier", "lat": "-35.6035", "lng": "-71.7362", "url": "", "region": "07", "provincia": "074"}}, {"model": "dpa_chile.comuna", "pk": "07407", "fields": {"tipo": "comuna", "nombre": "Villa Alegre", "lat": "-35.6868", "lng": "-71.6704", "url": "", "region": "07", "provincia": "074"}}, {"model": "dpa_chile.comuna", "pk": "07408", "fields": {"tipo": "comuna", "nombre": "Yerbas Buenas", "lat": "-35.6882", "lng": "-71.5636", "url": "", "region": "07", "provincia": "074"}}, {"model": "dpa_chile.comuna", "pk": "08101", "fields": {"tipo": "comuna", "nombre": "Concepci\u00f3n", "lat": "-36.8148", "lng": "-73.0293", "url": "", "region": "08", "provincia": "081"}}, {"model": "dpa_chile.comuna", "pk": "08102", "fields": {"tipo": "comuna", "nombre": "Coronel", "lat": "-37.0265", "lng": "-73.1498", "url": "", "region": "08", "provincia": "081"}}, {"model": "dpa_chile.comuna", "pk": "08103", "fields": {"tipo": "comuna", "nombre": "Chiguayante", "lat": "-36.9046", "lng": "-73.0164", "url": "", "region": "08", "provincia": "081"}}, {"model": "dpa_chile.comuna", "pk": "08104", "fields": {"tipo": "comuna", "nombre": "Florida", "lat": "-36.8209", "lng": "-72.6621", "url": "", "region": "08", "provincia": "081"}}, {"model": "dpa_chile.comuna", "pk": "08105", "fields": {"tipo": "comuna", "nombre": "Hualqui", "lat": "-37.0145", "lng": "-72.8662", "url": "", "region": "08", "provincia": "081"}}, {"model": "dpa_chile.comuna", "pk": "08106", "fields": {"tipo": "comuna", "nombre": "Lota", "lat": "-37.0906", "lng": "-73.1547", "url": "", "region": "08", "provincia": "081"}}, {"model": "dpa_chile.comuna", "pk": "08107", "fields": {"tipo": "comuna", "nombre": "Penco", "lat": "-36.7423", "lng": "-72.998", "url": "", "region": "08", "provincia": "081"}}, {"model": "dpa_chile.comuna", "pk": "08108", "fields": {"tipo": "comuna", "nombre": "San Pedro de la Paz", "lat": "-36.8635", "lng": "-73.1085", "url": "", "region": "08", "provincia": "081"}}, {"model": "dpa_chile.comuna", "pk": "08109", "fields": {"tipo": "comuna", "nombre": "Santa Juana", "lat": "-37.1726", "lng": "-72.9352", "url": "", "region": "08", "provincia": "081"}}, {"model": "dpa_chile.comuna", "pk": "08110", "fields": {"tipo": "comuna", "nombre": "Talcahuano", "lat": "-36.7364", "lng": "-73.1047", "url": "", "region": "08", "provincia": "081"}}, {"model": "dpa_chile.comuna", "pk": "08111", "fields": {"tipo": "comuna", "nombre": "Tom\u00e9", "lat": "-36.6177", "lng": "-72.9579", "url": "", "region": "08", "provincia": "081"}}, {"model": "dpa_chile.comuna", "pk": "08112", "fields": {"tipo": "comuna", "nombre": "Hualp\u00e9n", "lat": "-36.7827", "lng": "-73.1454", "url": "", "region": "08", "provincia": "081"}}, {"model": "dpa_chile.comuna", "pk": "08201", "fields": {"tipo": "comuna", "nombre": "Lebu", "lat": "-37.6079", "lng": "-73.6508", "url": "", "region": "08", "provincia": "082"}}, {"model": "dpa_chile.comuna", "pk": "08202", "fields": {"tipo": "comuna", "nombre": "Arauco", "lat": "-37.257", "lng": "-73.2839", "url": "", "region": "08", "provincia": "082"}}, {"model": "dpa_chile.comuna", "pk": "08203", "fields": {"tipo": "comuna", "nombre": "Ca\u00f1ete", "lat": "-37.8039", "lng": "-73.4016", "url": "", "region": "08", "provincia": "082"}}, {"model": "dpa_chile.comuna", "pk": "08204", "fields": {"tipo": "comuna", "nombre": "Contulmo", "lat": "-38.026", "lng": "-73.2581", "url": "", "region": "08", "provincia": "082"}}, {"model": "dpa_chile.comuna", "pk": "08205", "fields": {"tipo": "comuna", "nombre": "Curanilahue", "lat": "-37.4759", "lng": "-73.353", "url": "", "region": "08", "provincia": "082"}}, {"model": "dpa_chile.comuna", "pk": "08206", "fields": {"tipo": "comuna", "nombre": "Los \u00c1lamos", "lat": "-37.6747", "lng": "-73.3896", "url": "", "region": "08", "provincia": "082"}}, {"model": "dpa_chile.comuna", "pk": "08207", "fields": {"tipo": "comuna", "nombre": "Tir\u00faa", "lat": "-38.3315", "lng": "-73.3794", "url": "", "region": "08", "provincia": "082"}}, {"model": "dpa_chile.comuna", "pk": "08301", "fields": {"tipo": "comuna", "nombre": "Los \u00c1ngeles", "lat": "-37.473", "lng": "-72.3507", "url": "", "region": "08", "provincia": "083"}}, {"model": "dpa_chile.comuna", "pk": "08302", "fields": {"tipo": "comuna", "nombre": "Antuco", "lat": "-37.3273", "lng": "-71.6775", "url": "", "region": "08", "provincia": "083"}}, {"model": "dpa_chile.comuna", "pk": "08303", "fields": {"tipo": "comuna", "nombre": "Cabrero", "lat": "-37.0374", "lng": "-72.4057", "url": "", "region": "08", "provincia": "083"}}, {"model": "dpa_chile.comuna", "pk": "08304", "fields": {"tipo": "comuna", "nombre": "Laja", "lat": "-37.2768", "lng": "-72.7171", "url": "", "region": "08", "provincia": "083"}}, {"model": "dpa_chile.comuna", "pk": "08305", "fields": {"tipo": "comuna", "nombre": "Mulch\u00e9n", "lat": "-37.7147", "lng": "-72.2394", "url": "", "region": "08", "provincia": "083"}}, {"model": "dpa_chile.comuna", "pk": "08306", "fields": {"tipo": "comuna", "nombre": "Nacimiento", "lat": "-37.5011", "lng": "-72.6763", "url": "", "region": "08", "provincia": "083"}}, {"model": "dpa_chile.comuna", "pk": "08307", "fields": {"tipo": "comuna", "nombre": "Negrete", "lat": "-37.5974", "lng": "-72.5646", "url": "", "region": "08", "provincia": "083"}}, {"model": "dpa_chile.comuna", "pk": "08308", "fields": {"tipo": "comuna", "nombre": "Quilaco", "lat": "-37.6799", "lng": "-72.0074", "url": "", "region": "08", "provincia": "083"}}, {"model": "dpa_chile.comuna", "pk": "08309", "fields": {"tipo": "comuna", "nombre": "Quilleco", "lat": "-37.4335", "lng": "-71.8761", "url": "", "region": "08", "provincia": "083"}}, {"model": "dpa_chile.comuna", "pk": "08310", "fields": {"tipo": "comuna", "nombre": "San Rosendo", "lat": "-37.2021", "lng": "-72.748", "url": "", "region": "08", "provincia": "083"}}, {"model": "dpa_chile.comuna", "pk": "08311", "fields": {"tipo": "comuna", "nombre": "Santa B\u00e1rbara", "lat": "-37.6627", "lng": "-72.0184", "url": "", "region": "08", "provincia": "083"}}, {"model": "dpa_chile.comuna", "pk": "08312", "fields": {"tipo": "comuna", "nombre": "Tucapel", "lat": "-37.2901", "lng": "-71.9491", "url": "", "region": "08", "provincia": "083"}}, {"model": "dpa_chile.comuna", "pk": "08313", "fields": {"tipo": "comuna", "nombre": "Yumbel", "lat": "-37.0964", "lng": "-72.5562", "url": "", "region": "08", "provincia": "083"}}, {"model": "dpa_chile.comuna", "pk": "08314", "fields": {"tipo": "comuna", "nombre": "Alto Biob\u00edo", "lat": "-37.8708", "lng": "-71.6106", "url": "", "region": "08", "provincia": "083"}}, {"model": "dpa_chile.comuna", "pk": "08401", "fields": {"tipo": "comuna", "nombre": "Chill\u00e1n", "lat": "-36.6013", "lng": "-72.1093", "url": "", "region": "08", "provincia": "084"}}, {"model": "dpa_chile.comuna", "pk": "08402", "fields": {"tipo": "comuna", "nombre": "Bulnes", "lat": "-36.7422", "lng": "-72.3018", "url": "", "region": "08", "provincia": "084"}}, {"model": "dpa_chile.comuna", "pk": "08403", "fields": {"tipo": "comuna", "nombre": "Cobquecura", "lat": "-36.1318", "lng": "-72.7911", "url": "", "region": "08", "provincia": "084"}}, {"model": "dpa_chile.comuna", "pk": "08404", "fields": {"tipo": "comuna", "nombre": "Coelemu", "lat": "-36.4877", "lng": "-72.7022", "url": "", "region": "08", "provincia": "084"}}, {"model": "dpa_chile.comuna", "pk": "08405", "fields": {"tipo": "comuna", "nombre": "Coihueco", "lat": "-36.6166", "lng": "-71.8344", "url": "", "region": "08", "provincia": "084"}}, {"model": "dpa_chile.comuna", "pk": "08406", "fields": {"tipo": "comuna", "nombre": "Chill\u00e1n Viejo", "lat": "-36.6333", "lng": "-72.1404", "url": "", "region": "08", "provincia": "084"}}, {"model": "dpa_chile.comuna", "pk": "08407", "fields": {"tipo": "comuna", "nombre": "El Carmen", "lat": "-36.8964", "lng": "-72.0218", "url": "", "region": "08", "provincia": "084"}}, {"model": "dpa_chile.comuna", "pk": "08408", "fields": {"tipo": "comuna", "nombre": "Ninhue", "lat": "-36.4011", "lng": "-72.397", "url": "", "region": "08", "provincia": "084"}}, {"model": "dpa_chile.comuna", "pk": "08409", "fields": {"tipo": "comuna", "nombre": "\u00d1iqu\u00e9n", "lat": "-36.2848", "lng": "-71.8994", "url": "", "region": "08", "provincia": "084"}}, {"model": "dpa_chile.comuna", "pk": "08410", "fields": {"tipo": "comuna", "nombre": "Pemuco", "lat": "-36.9865", "lng": "-72.0191", "url": "", "region": "08", "provincia": "084"}}, {"model": "dpa_chile.comuna", "pk": "08411", "fields": {"tipo": "comuna", "nombre": "Pinto", "lat": "-36.6978", "lng": "-71.8934", "url": "", "region": "08", "provincia": "084"}}, {"model": "dpa_chile.comuna", "pk": "08412", "fields": {"tipo": "comuna", "nombre": "Portezuelo", "lat": "-36.529", "lng": "-72.433", "url": "", "region": "08", "provincia": "084"}}, {"model": "dpa_chile.comuna", "pk": "08413", "fields": {"tipo": "comuna", "nombre": "Quill\u00f3n", "lat": "-36.7383", "lng": "-72.469", "url": "", "region": "08", "provincia": "084"}}, {"model": "dpa_chile.comuna", "pk": "08414", "fields": {"tipo": "comuna", "nombre": "Quirihue", "lat": "-36.2839", "lng": "-72.5414", "url": "", "region": "08", "provincia": "084"}}, {"model": "dpa_chile.comuna", "pk": "08415", "fields": {"tipo": "comuna", "nombre": "R\u00e1nquil", "lat": "-36.6485", "lng": "-72.6064", "url": "", "region": "08", "provincia": "084"}}, {"model": "dpa_chile.comuna", "pk": "08416", "fields": {"tipo": "comuna", "nombre": "San Carlos", "lat": "-36.4221", "lng": "-71.9594", "url": "", "region": "08", "provincia": "084"}}, {"model": "dpa_chile.comuna", "pk": "08417", "fields": {"tipo": "comuna", "nombre": "San Fabi\u00e1n", "lat": "-36.5538", "lng": "-71.5487", "url": "", "region": "08", "provincia": "084"}}, {"model": "dpa_chile.comuna", "pk": "08418", "fields": {"tipo": "comuna", "nombre": "San Ignacio", "lat": "-36.8186", "lng": "-71.9883", "url": "", "region": "08", "provincia": "084"}}, {"model": "dpa_chile.comuna", "pk": "08419", "fields": {"tipo": "comuna", "nombre": "San Nicol\u00e1s", "lat": "-36.4996", "lng": "-72.2126", "url": "", "region": "08", "provincia": "084"}}, {"model": "dpa_chile.comuna", "pk": "08420", "fields": {"tipo": "comuna", "nombre": "Treguaco", "lat": "-36.4095", "lng": "-72.6603", "url": "", "region": "08", "provincia": "084"}}, {"model": "dpa_chile.comuna", "pk": "08421", "fields": {"tipo": "comuna", "nombre": "Yungay", "lat": "-37.122", "lng": "-72.0132", "url": "", "region": "08", "provincia": "084"}}, {"model": "dpa_chile.comuna", "pk": "09101", "fields": {"tipo": "comuna", "nombre": "Temuco", "lat": "-38.7362", "lng": "-72.5989", "url": "", "region": "09", "provincia": "091"}}, {"model": "dpa_chile.comuna", "pk": "09102", "fields": {"tipo": "comuna", "nombre": "Carahue", "lat": "-38.7116", "lng": "-73.1651", "url": "", "region": "09", "provincia": "091"}}, {"model": "dpa_chile.comuna", "pk": "09103", "fields": {"tipo": "comuna", "nombre": "Cunco", "lat": "-38.9307", "lng": "-72.0264", "url": "", "region": "09", "provincia": "091"}}, {"model": "dpa_chile.comuna", "pk": "09104", "fields": {"tipo": "comuna", "nombre": "Curarrehue", "lat": "-39.3592", "lng": "-71.5881", "url": "", "region": "09", "provincia": "091"}}, {"model": "dpa_chile.comuna", "pk": "09105", "fields": {"tipo": "comuna", "nombre": "Freire", "lat": "-38.9538", "lng": "-72.6219", "url": "", "region": "09", "provincia": "091"}}, {"model": "dpa_chile.comuna", "pk": "09106", "fields": {"tipo": "comuna", "nombre": "Galvarino", "lat": "-38.4085", "lng": "-72.7804", "url": "", "region": "09", "provincia": "091"}}, {"model": "dpa_chile.comuna", "pk": "09107", "fields": {"tipo": "comuna", "nombre": "Gorbea", "lat": "-39.0948", "lng": "-72.6722", "url": "", "region": "09", "provincia": "091"}}, {"model": "dpa_chile.comuna", "pk": "09108", "fields": {"tipo": "comuna", "nombre": "Lautaro", "lat": "-38.5286", "lng": "-72.427", "url": "", "region": "09", "provincia": "091"}}, {"model": "dpa_chile.comuna", "pk": "09109", "fields": {"tipo": "comuna", "nombre": "Loncoche", "lat": "-39.3681", "lng": "-72.6315", "url": "", "region": "09", "provincia": "091"}}, {"model": "dpa_chile.comuna", "pk": "09110", "fields": {"tipo": "comuna", "nombre": "Melipeuco", "lat": "-38.8429", "lng": "-71.6871", "url": "", "region": "09", "provincia": "091"}}, {"model": "dpa_chile.comuna", "pk": "09111", "fields": {"tipo": "comuna", "nombre": "Nueva Imperial", "lat": "-38.7445", "lng": "-72.9482", "url": "", "region": "09", "provincia": "091"}}, {"model": "dpa_chile.comuna", "pk": "09112", "fields": {"tipo": "comuna", "nombre": "Padre las Casas", "lat": "-38.7658", "lng": "-72.5929", "url": "", "region": "09", "provincia": "091"}}, {"model": "dpa_chile.comuna", "pk": "09113", "fields": {"tipo": "comuna", "nombre": "Perquenco", "lat": "-38.4154", "lng": "-72.3725", "url": "", "region": "09", "provincia": "091"}}, {"model": "dpa_chile.comuna", "pk": "09114", "fields": {"tipo": "comuna", "nombre": "Pitrufqu\u00e9n", "lat": "-38.9829", "lng": "-72.6429", "url": "", "region": "09", "provincia": "091"}}, {"model": "dpa_chile.comuna", "pk": "09115", "fields": {"tipo": "comuna", "nombre": "Puc\u00f3n", "lat": "-39.2824", "lng": "-71.9545", "url": "", "region": "09", "provincia": "091"}}, {"model": "dpa_chile.comuna", "pk": "09116", "fields": {"tipo": "comuna", "nombre": "Saavedra", "lat": "-38.7803", "lng": "-73.3897", "url": "", "region": "09", "provincia": "091"}}, {"model": "dpa_chile.comuna", "pk": "09117", "fields": {"tipo": "comuna", "nombre": "Teodoro Schmidt", "lat": "-38.9989", "lng": "-73.093", "url": "", "region": "09", "provincia": "091"}}, {"model": "dpa_chile.comuna", "pk": "09118", "fields": {"tipo": "comuna", "nombre": "Tolt\u00e9n", "lat": "-39.2022", "lng": "-73.2004", "url": "", "region": "09", "provincia": "091"}}, {"model": "dpa_chile.comuna", "pk": "09119", "fields": {"tipo": "comuna", "nombre": "Vilc\u00fan", "lat": "-38.6701", "lng": "-72.2238", "url": "", "region": "09", "provincia": "091"}}, {"model": "dpa_chile.comuna", "pk": "09120", "fields": {"tipo": "comuna", "nombre": "Villarrica", "lat": "-39.2803", "lng": "-72.2182", "url": "", "region": "09", "provincia": "091"}}, {"model": "dpa_chile.comuna", "pk": "09121", "fields": {"tipo": "comuna", "nombre": "Cholchol", "lat": "-38.596", "lng": "-72.8445", "url": "", "region": "09", "provincia": "091"}}, {"model": "dpa_chile.comuna", "pk": "09201", "fields": {"tipo": "comuna", "nombre": "Angol", "lat": "-37.803", "lng": "-72.7017", "url": "", "region": "09", "provincia": "092"}}, {"model": "dpa_chile.comuna", "pk": "09202", "fields": {"tipo": "comuna", "nombre": "Collipulli", "lat": "-37.9528", "lng": "-72.4323", "url": "", "region": "09", "provincia": "092"}}, {"model": "dpa_chile.comuna", "pk": "09203", "fields": {"tipo": "comuna", "nombre": "Curacaut\u00edn", "lat": "-38.4317", "lng": "-71.8898", "url": "", "region": "09", "provincia": "092"}}, {"model": "dpa_chile.comuna", "pk": "09204", "fields": {"tipo": "comuna", "nombre": "Ercilla", "lat": "-38.0587", "lng": "-72.358", "url": "", "region": "09", "provincia": "092"}}, {"model": "dpa_chile.comuna", "pk": "09205", "fields": {"tipo": "comuna", "nombre": "Lonquimay", "lat": "-38.4501", "lng": "-71.374", "url": "", "region": "09", "provincia": "092"}}, {"model": "dpa_chile.comuna", "pk": "09206", "fields": {"tipo": "comuna", "nombre": "Los Sauces", "lat": "-37.9754", "lng": "-72.8288", "url": "", "region": "09", "provincia": "092"}}, {"model": "dpa_chile.comuna", "pk": "09207", "fields": {"tipo": "comuna", "nombre": "Lumaco", "lat": "-38.1636", "lng": "-72.8918", "url": "", "region": "09", "provincia": "092"}}, {"model": "dpa_chile.comuna", "pk": "09208", "fields": {"tipo": "comuna", "nombre": "Pur\u00e9n", "lat": "-38.0326", "lng": "-73.0728", "url": "", "region": "09", "provincia": "092"}}, {"model": "dpa_chile.comuna", "pk": "09209", "fields": {"tipo": "comuna", "nombre": "Renaico", "lat": "-37.6654", "lng": "-72.5687", "url": "", "region": "09", "provincia": "092"}}, {"model": "dpa_chile.comuna", "pk": "09210", "fields": {"tipo": "comuna", "nombre": "Traigu\u00e9n", "lat": "-38.2509", "lng": "-72.6647", "url": "", "region": "09", "provincia": "092"}}, {"model": "dpa_chile.comuna", "pk": "09211", "fields": {"tipo": "comuna", "nombre": "Victoria", "lat": "-38.2336", "lng": "-72.3329", "url": "", "region": "09", "provincia": "092"}}, {"model": "dpa_chile.comuna", "pk": "10101", "fields": {"tipo": "comuna", "nombre": "Puerto Montt", "lat": "-41.4633", "lng": "-72.9314", "url": "", "region": "10", "provincia": "101"}}, {"model": "dpa_chile.comuna", "pk": "10102", "fields": {"tipo": "comuna", "nombre": "Calbuco", "lat": "-41.7775", "lng": "-73.1415", "url": "", "region": "10", "provincia": "101"}}, {"model": "dpa_chile.comuna", "pk": "10103", "fields": {"tipo": "comuna", "nombre": "Cocham\u00f3", "lat": "-41.488", "lng": "-72.3038", "url": "", "region": "10", "provincia": "101"}}, {"model": "dpa_chile.comuna", "pk": "10104", "fields": {"tipo": "comuna", "nombre": "Fresia", "lat": "-41.1542", "lng": "-73.4224", "url": "", "region": "10", "provincia": "101"}}, {"model": "dpa_chile.comuna", "pk": "10105", "fields": {"tipo": "comuna", "nombre": "Frutillar", "lat": "-41.1167", "lng": "-73.05", "url": "", "region": "10", "provincia": "101"}}, {"model": "dpa_chile.comuna", "pk": "10106", "fields": {"tipo": "comuna", "nombre": "Los Muermos", "lat": "-41.3997", "lng": "-73.4651", "url": "", "region": "10", "provincia": "101"}}, {"model": "dpa_chile.comuna", "pk": "10107", "fields": {"tipo": "comuna", "nombre": "Llanquihue", "lat": "-41.2574", "lng": "-73.0054", "url": "", "region": "10", "provincia": "101"}}, {"model": "dpa_chile.comuna", "pk": "10108", "fields": {"tipo": "comuna", "nombre": "Maull\u00edn", "lat": "-41.6172", "lng": "-73.5956", "url": "", "region": "10", "provincia": "101"}}, {"model": "dpa_chile.comuna", "pk": "10109", "fields": {"tipo": "comuna", "nombre": "Puerto Varas", "lat": "-41.316", "lng": "-72.9836", "url": "", "region": "10", "provincia": "101"}}, {"model": "dpa_chile.comuna", "pk": "10201", "fields": {"tipo": "comuna", "nombre": "Castro", "lat": "-42.48", "lng": "-73.7625", "url": "", "region": "10", "provincia": "102"}}, {"model": "dpa_chile.comuna", "pk": "10202", "fields": {"tipo": "comuna", "nombre": "Ancud", "lat": "-41.8657", "lng": "-73.8336", "url": "", "region": "10", "provincia": "102"}}, {"model": "dpa_chile.comuna", "pk": "10203", "fields": {"tipo": "comuna", "nombre": "Chonchi", "lat": "-42.6232", "lng": "-73.7739", "url": "", "region": "10", "provincia": "102"}}, {"model": "dpa_chile.comuna", "pk": "10204", "fields": {"tipo": "comuna", "nombre": "Curaco de V\u00e9lez", "lat": "-42.4404", "lng": "-73.6037", "url": "", "region": "10", "provincia": "102"}}, {"model": "dpa_chile.comuna", "pk": "10205", "fields": {"tipo": "comuna", "nombre": "Dalcahue", "lat": "-42.3776", "lng": "-73.6521", "url": "", "region": "10", "provincia": "102"}}, {"model": "dpa_chile.comuna", "pk": "10206", "fields": {"tipo": "comuna", "nombre": "Puqueld\u00f3n", "lat": "-42.6015", "lng": "-73.6714", "url": "", "region": "10", "provincia": "102"}}, {"model": "dpa_chile.comuna", "pk": "10207", "fields": {"tipo": "comuna", "nombre": "Queil\u00e9n", "lat": "-42.9001", "lng": "-73.4827", "url": "", "region": "10", "provincia": "102"}}, {"model": "dpa_chile.comuna", "pk": "10208", "fields": {"tipo": "comuna", "nombre": "Quell\u00f3n", "lat": "-43.1156", "lng": "-73.6172", "url": "", "region": "10", "provincia": "102"}}, {"model": "dpa_chile.comuna", "pk": "10209", "fields": {"tipo": "comuna", "nombre": "Quemchi", "lat": "-42.1426", "lng": "-73.475", "url": "", "region": "10", "provincia": "102"}}, {"model": "dpa_chile.comuna", "pk": "10210", "fields": {"tipo": "comuna", "nombre": "Quinchao", "lat": "-42.472", "lng": "-73.4898", "url": "", "region": "10", "provincia": "102"}}, {"model": "dpa_chile.comuna", "pk": "10301", "fields": {"tipo": "comuna", "nombre": "Osorno", "lat": "-40.5747", "lng": "-73.1319", "url": "", "region": "10", "provincia": "103"}}, {"model": "dpa_chile.comuna", "pk": "10302", "fields": {"tipo": "comuna", "nombre": "Puerto Octay", "lat": "-40.9755", "lng": "-72.8833", "url": "", "region": "10", "provincia": "103"}}, {"model": "dpa_chile.comuna", "pk": "10303", "fields": {"tipo": "comuna", "nombre": "Purranque", "lat": "-40.9085", "lng": "-73.1653", "url": "", "region": "10", "provincia": "103"}}, {"model": "dpa_chile.comuna", "pk": "10304", "fields": {"tipo": "comuna", "nombre": "Puyehue", "lat": "-40.6806", "lng": "-72.599", "url": "", "region": "10", "provincia": "103"}}, {"model": "dpa_chile.comuna", "pk": "10305", "fields": {"tipo": "comuna", "nombre": "R\u00edo Negro", "lat": "-40.7829", "lng": "-73.2319", "url": "", "region": "10", "provincia": "103"}}, {"model": "dpa_chile.comuna", "pk": "10306", "fields": {"tipo": "comuna", "nombre": "San Juan de la Costa", "lat": "-40.5156", "lng": "-73.3997", "url": "", "region": "10", "provincia": "103"}}, {"model": "dpa_chile.comuna", "pk": "10307", "fields": {"tipo": "comuna", "nombre": "San Pablo", "lat": "-40.4118", "lng": "-73.0102", "url": "", "region": "10", "provincia": "103"}}, {"model": "dpa_chile.comuna", "pk": "10401", "fields": {"tipo": "comuna", "nombre": "Chait\u00e9n", "lat": "-42.9168", "lng": "-72.7164", "url": "", "region": "10", "provincia": "104"}}, {"model": "dpa_chile.comuna", "pk": "10402", "fields": {"tipo": "comuna", "nombre": "Futaleuf\u00fa", "lat": "-43.1859", "lng": "-71.8666", "url": "", "region": "10", "provincia": "104"}}, {"model": "dpa_chile.comuna", "pk": "10403", "fields": {"tipo": "comuna", "nombre": "Hualaihu\u00e9", "lat": "-42.0967", "lng": "-72.4044", "url": "", "region": "10", "provincia": "104"}}, {"model": "dpa_chile.comuna", "pk": "10404", "fields": {"tipo": "comuna", "nombre": "Palena", "lat": "-43.6162", "lng": "-71.8176", "url": "", "region": "10", "provincia": "104"}}, {"model": "dpa_chile.comuna", "pk": "11101", "fields": {"tipo": "comuna", "nombre": "Coihaique", "lat": "-45.5758", "lng": "-72.0621", "url": "", "region": "11", "provincia": "111"}}, {"model": "dpa_chile.comuna", "pk": "11102", "fields": {"tipo": "comuna", "nombre": "Lago Verde", "lat": "-44.2236", "lng": "-71.8396", "url": "", "region": "11", "provincia": "111"}}, {"model": "dpa_chile.comuna", "pk": "11201", "fields": {"tipo": "comuna", "nombre": "Ays\u00e9n", "lat": "-45.3975", "lng": "-72.6993", "url": "", "region": "11", "provincia": "112"}}, {"model": "dpa_chile.comuna", "pk": "11202", "fields": {"tipo": "comuna", "nombre": "Cisnes", "lat": "-44.728", "lng": "-72.6828", "url": "", "region": "11", "provincia": "112"}}, {"model": "dpa_chile.comuna", "pk": "11203", "fields": {"tipo": "comuna", "nombre": "Guaitecas", "lat": "-43.8781", "lng": "-73.7485", "url": "", "region": "11", "provincia": "112"}}, {"model": "dpa_chile.comuna", "pk": "11301", "fields": {"tipo": "comuna", "nombre": "Cochrane", "lat": "-47.2494", "lng": "-72.5784", "url": "", "region": "11", "provincia": "113"}}, {"model": "dpa_chile.comuna", "pk": "11302", "fields": {"tipo": "comuna", "nombre": "O\u2019Higgins", "lat": "-48.4643", "lng": "-72.5613", "url": "", "region": "11", "provincia": "113"}}, {"model": "dpa_chile.comuna", "pk": "11303", "fields": {"tipo": "comuna", "nombre": "Tortel", "lat": "-47.8242", "lng": "-73.5645", "url": "", "region": "11", "provincia": "113"}}, {"model": "dpa_chile.comuna", "pk": "11401", "fields": {"tipo": "comuna", "nombre": "Chile Chico", "lat": "-46.5401", "lng": "-71.7218", "url": "", "region": "11", "provincia": "114"}}, {"model": "dpa_chile.comuna", "pk": "11402", "fields": {"tipo": "comuna", "nombre": "R\u00edo Ib\u00e1\u00f1ez", "lat": "-46.2938", "lng": "-71.9357", "url": "", "region": "11", "provincia": "114"}}, {"model": "dpa_chile.comuna", "pk": "12101", "fields": {"tipo": "comuna", "nombre": "Punta Arenas", "lat": "-53.1641", "lng": "-70.9305", "url": "", "region": "12", "provincia": "121"}}, {"model": "dpa_chile.comuna", "pk": "12102", "fields": {"tipo": "comuna", "nombre": "Laguna Blanca", "lat": "-52.3001", "lng": "-71.1612", "url": "", "region": "12", "provincia": "121"}}, {"model": "dpa_chile.comuna", "pk": "12103", "fields": {"tipo": "comuna", "nombre": "R\u00edo Verde", "lat": "-52.5814", "lng": "-71.5128", "url": "", "region": "12", "provincia": "121"}}, {"model": "dpa_chile.comuna", "pk": "12104", "fields": {"tipo": "comuna", "nombre": "San Gregorio", "lat": "-52.3135", "lng": "-69.6842", "url": "", "region": "12", "provincia": "121"}}, {"model": "dpa_chile.comuna", "pk": "12201", "fields": {"tipo": "comuna", "nombre": "Cabo de Hornos", "lat": "-54.9352", "lng": "-67.6041", "url": "", "region": "12", "provincia": "122"}}, {"model": "dpa_chile.comuna", "pk": "12202", "fields": {"tipo": "comuna", "nombre": "Ant\u00e1rtica", "lat": "-64.3589", "lng": "-60.8203", "url": "", "region": "12", "provincia": "122"}}, {"model": "dpa_chile.comuna", "pk": "12301", "fields": {"tipo": "comuna", "nombre": "Porvenir", "lat": "-53.2898", "lng": "-70.3633", "url": "", "region": "12", "provincia": "123"}}, {"model": "dpa_chile.comuna", "pk": "12302", "fields": {"tipo": "comuna", "nombre": "Primavera", "lat": "-52.7122", "lng": "-69.2496", "url": "", "region": "12", "provincia": "123"}}, {"model": "dpa_chile.comuna", "pk": "12303", "fields": {"tipo": "comuna", "nombre": "Timaukel", "lat": "-54.2877", "lng": "-69.1644", "url": "", "region": "12", "provincia": "123"}}, {"model": "dpa_chile.comuna", "pk": "12401", "fields": {"tipo": "comuna", "nombre": "Natales", "lat": "-51.7219", "lng": "-72.5208", "url": "", "region": "12", "provincia": "124"}}, {"model": "dpa_chile.comuna", "pk": "12402", "fields": {"tipo": "comuna", "nombre": "Torres del Paine", "lat": "-50.9896", "lng": "-73.0893", "url": "", "region": "12", "provincia": "124"}}, {"model": "dpa_chile.comuna", "pk": "13101", "fields": {"tipo": "comuna", "nombre": "Santiago Centro", "lat": "-33.4417", "lng": "-70.6541", "url": "", "region": "13", "provincia": "131"}}, {"model": "dpa_chile.comuna", "pk": "13102", "fields": {"tipo": "comuna", "nombre": "Cerrillos", "lat": "-33.497", "lng": "-70.7112", "url": "", "region": "13", "provincia": "131"}}, {"model": "dpa_chile.comuna", "pk": "13103", "fields": {"tipo": "comuna", "nombre": "Cerro Navia", "lat": "-33.4267", "lng": "-70.7434", "url": "", "region": "13", "provincia": "131"}}, {"model": "dpa_chile.comuna", "pk": "13104", "fields": {"tipo": "comuna", "nombre": "Conchal\u00ed", "lat": "-33.3862", "lng": "-70.6727", "url": "", "region": "13", "provincia": "131"}}, {"model": "dpa_chile.comuna", "pk": "13105", "fields": {"tipo": "comuna", "nombre": "El Bosque", "lat": "-33.5638", "lng": "-70.6714", "url": "", "region": "13", "provincia": "131"}}, {"model": "dpa_chile.comuna", "pk": "13106", "fields": {"tipo": "comuna", "nombre": "Estaci\u00f3n Central", "lat": "-33.4503", "lng": "-70.6751", "url": "", "region": "13", "provincia": "131"}}, {"model": "dpa_chile.comuna", "pk": "13107", "fields": {"tipo": "comuna", "nombre": "Huechuraba", "lat": "-33.3665", "lng": "-70.6315", "url": "", "region": "13", "provincia": "131"}}, {"model": "dpa_chile.comuna", "pk": "13108", "fields": {"tipo": "comuna", "nombre": "Independencia", "lat": "-33.4196", "lng": "-70.6627", "url": "", "region": "13", "provincia": "131"}}, {"model": "dpa_chile.comuna", "pk": "13109", "fields": {"tipo": "comuna", "nombre": "La Cisterna", "lat": "-33.538", "lng": "-70.6612", "url": "", "region": "13", "provincia": "131"}}, {"model": "dpa_chile.comuna", "pk": "13110", "fields": {"tipo": "comuna", "nombre": "La Florida", "lat": "-33.5225", "lng": "-70.5952", "url": "", "region": "13", "provincia": "131"}}, {"model": "dpa_chile.comuna", "pk": "13111", "fields": {"tipo": "comuna", "nombre": "La Granja", "lat": "-33.5373", "lng": "-70.6188", "url": "", "region": "13", "provincia": "131"}}, {"model": "dpa_chile.comuna", "pk": "13112", "fields": {"tipo": "comuna", "nombre": "La Pintana", "lat": "-33.5902", "lng": "-70.6322", "url": "", "region": "13", "provincia": "131"}}, {"model": "dpa_chile.comuna", "pk": "13113", "fields": {"tipo": "comuna", "nombre": "La Reina", "lat": "-33.4565", "lng": "-70.5349", "url": "", "region": "13", "provincia": "131"}}, {"model": "dpa_chile.comuna", "pk": "13114", "fields": {"tipo": "comuna", "nombre": "Las Condes", "lat": "-33.4154", "lng": "-70.5837", "url": "", "region": "13", "provincia": "131"}}, {"model": "dpa_chile.comuna", "pk": "13115", "fields": {"tipo": "comuna", "nombre": "Lo Barnechea", "lat": "-33.2993", "lng": "-70.3748", "url": "", "region": "13", "provincia": "131"}}, {"model": "dpa_chile.comuna", "pk": "13116", "fields": {"tipo": "comuna", "nombre": "Lo Espejo", "lat": "-33.5247", "lng": "-70.6916", "url": "", "region": "13", "provincia": "131"}}, {"model": "dpa_chile.comuna", "pk": "13117", "fields": {"tipo": "comuna", "nombre": "Lo Prado", "lat": "-33.4489", "lng": "-70.721", "url": "", "region": "13", "provincia": "131"}}, {"model": "dpa_chile.comuna", "pk": "13118", "fields": {"tipo": "comuna", "nombre": "Macul", "lat": "-33.492", "lng": "-70.5968", "url": "", "region": "13", "provincia": "131"}}, {"model": "dpa_chile.comuna", "pk": "13119", "fields": {"tipo": "comuna", "nombre": "Maip\u00fa", "lat": "-33.5213", "lng": "-70.7572", "url": "", "region": "13", "provincia": "131"}}, {"model": "dpa_chile.comuna", "pk": "13120", "fields": {"tipo": "comuna", "nombre": "\u00d1u\u00f1oa", "lat": "-33.4607", "lng": "-70.5927", "url": "", "region": "13", "provincia": "131"}}, {"model": "dpa_chile.comuna", "pk": "13121", "fields": {"tipo": "comuna", "nombre": "Pedro Aguirre Cerda", "lat": "-33.4891", "lng": "-70.6729", "url": "", "region": "13", "provincia": "131"}}, {"model": "dpa_chile.comuna", "pk": "13122", "fields": {"tipo": "comuna", "nombre": "Pe\u00f1alol\u00e9n", "lat": "-33.4904", "lng": "-70.5105", "url": "", "region": "13", "provincia": "131"}}, {"model": "dpa_chile.comuna", "pk": "13123", "fields": {"tipo": "comuna", "nombre": "Providencia", "lat": "-33.4214", "lng": "-70.6033", "url": "", "region": "13", "provincia": "131"}}, {"model": "dpa_chile.comuna", "pk": "13124", "fields": {"tipo": "comuna", "nombre": "Pudahuel", "lat": "-33.4184", "lng": "-70.8324", "url": "", "region": "13", "provincia": "131"}}, {"model": "dpa_chile.comuna", "pk": "13125", "fields": {"tipo": "comuna", "nombre": "Quilicura", "lat": "-33.3551", "lng": "-70.7278", "url": "", "region": "13", "provincia": "131"}}, {"model": "dpa_chile.comuna", "pk": "13126", "fields": {"tipo": "comuna", "nombre": "Quinta Normal", "lat": "-33.428", "lng": "-70.6964", "url": "", "region": "13", "provincia": "131"}}, {"model": "dpa_chile.comuna", "pk": "13127", "fields": {"tipo": "comuna", "nombre": "Recoleta", "lat": "-33.4173", "lng": "-70.6303", "url": "", "region": "13", "provincia": "131"}}, {"model": "dpa_chile.comuna", "pk": "13128", "fields": {"tipo": "comuna", "nombre": "Renca", "lat": "-33.4141", "lng": "-70.7129", "url": "", "region": "13", "provincia": "131"}}, {"model": "dpa_chile.comuna", "pk": "13129", "fields": {"tipo": "comuna", "nombre": "San Joaqu\u00edn", "lat": "-33.4961", "lng": "-70.6245", "url": "", "region": "13", "provincia": "131"}}, {"model": "dpa_chile.comuna", "pk": "13130", "fields": {"tipo": "comuna", "nombre": "San Miguel", "lat": "-33.5017", "lng": "-70.6489", "url": "", "region": "13", "provincia": "131"}}, {"model": "dpa_chile.comuna", "pk": "13131", "fields": {"tipo": "comuna", "nombre": "San Ram\u00f3n", "lat": "-33.5349", "lng": "-70.6392", "url": "", "region": "13", "provincia": "131"}}, {"model": "dpa_chile.comuna", "pk": "13132", "fields": {"tipo": "comuna", "nombre": "Vitacura", "lat": "-33.3863", "lng": "-70.5698", "url": "", "region": "13", "provincia": "131"}}, {"model": "dpa_chile.comuna", "pk": "13201", "fields": {"tipo": "comuna", "nombre": "Puente Alto", "lat": "-33.6079", "lng": "-70.5778", "url": "", "region": "13", "provincia": "132"}}, {"model": "dpa_chile.comuna", "pk": "13202", "fields": {"tipo": "comuna", "nombre": "Pirque", "lat": "-33.7384", "lng": "-70.4914", "url": "", "region": "13", "provincia": "132"}}, {"model": "dpa_chile.comuna", "pk": "13203", "fields": {"tipo": "comuna", "nombre": "San Jos\u00e9 de Maipo", "lat": "-33.6921", "lng": "-70.1325", "url": "", "region": "13", "provincia": "132"}}, {"model": "dpa_chile.comuna", "pk": "13301", "fields": {"tipo": "comuna", "nombre": "Colina", "lat": "-33.1996", "lng": "-70.6702", "url": "", "region": "13", "provincia": "133"}}, {"model": "dpa_chile.comuna", "pk": "13302", "fields": {"tipo": "comuna", "nombre": "Lampa", "lat": "-33.2863", "lng": "-70.8789", "url": "", "region": "13", "provincia": "133"}}, {"model": "dpa_chile.comuna", "pk": "13303", "fields": {"tipo": "comuna", "nombre": "Tiltil", "lat": "-33.0655", "lng": "-70.8465", "url": "", "region": "13", "provincia": "133"}}, {"model": "dpa_chile.comuna", "pk": "13401", "fields": {"tipo": "comuna", "nombre": "San Bernardo", "lat": "-33.5913", "lng": "-70.702", "url": "", "region": "13", "provincia": "134"}}, {"model": "dpa_chile.comuna", "pk": "13402", "fields": {"tipo": "comuna", "nombre": "Buin", "lat": "-33.754", "lng": "-70.7163", "url": "", "region": "13", "provincia": "134"}}, {"model": "dpa_chile.comuna", "pk": "13403", "fields": {"tipo": "comuna", "nombre": "Calera de Tango", "lat": "-33.6326", "lng": "-70.7821", "url": "", "region": "13", "provincia": "134"}}, {"model": "dpa_chile.comuna", "pk": "13404", "fields": {"tipo": "comuna", "nombre": "Paine", "lat": "-33.8673", "lng": "-70.7303", "url": "", "region": "13", "provincia": "134"}}, {"model": "dpa_chile.comuna", "pk": "13501", "fields": {"tipo": "comuna", "nombre": "Melipilla", "lat": "-33.6866", "lng": "-71.2139", "url": "", "region": "13", "provincia": "135"}}, {"model": "dpa_chile.comuna", "pk": "13502", "fields": {"tipo": "comuna", "nombre": "Alhu\u00e9", "lat": "-34.0355", "lng": "-71.028", "url": "", "region": "13", "provincia": "135"}}, {"model": "dpa_chile.comuna", "pk": "13503", "fields": {"tipo": "comuna", "nombre": "Curacav\u00ed", "lat": "-33.4063", "lng": "-71.1333", "url": "", "region": "13", "provincia": "135"}}, {"model": "dpa_chile.comuna", "pk": "13504", "fields": {"tipo": "comuna", "nombre": "Mar\u00eda Pinto", "lat": "-33.5154", "lng": "-71.1191", "url": "", "region": "13", "provincia": "135"}}, {"model": "dpa_chile.comuna", "pk": "13505", "fields": {"tipo": "comuna", "nombre": "San Pedro", "lat": "-33.8779", "lng": "-71.4609", "url": "", "region": "13", "provincia": "135"}}, {"model": "dpa_chile.comuna", "pk": "13601", "fields": {"tipo": "comuna", "nombre": "Talagante", "lat": "-33.6643", "lng": "-70.9296", "url": "", "region": "13", "provincia": "136"}}, {"model": "dpa_chile.comuna", "pk": "13602", "fields": {"tipo": "comuna", "nombre": "El Monte", "lat": "-33.6662", "lng": "-71.0294", "url": "", "region": "13", "provincia": "136"}}, {"model": "dpa_chile.comuna", "pk": "13603", "fields": {"tipo": "comuna", "nombre": "Isla de Maipo", "lat": "-33.7536", "lng": "-70.8862", "url": "", "region": "13", "provincia": "136"}}, {"model": "dpa_chile.comuna", "pk": "13604", "fields": {"tipo": "comuna", "nombre": "Padre Hurtado", "lat": "-33.5761", "lng": "-70.8003", "url": "", "region": "13", "provincia": "136"}}, {"model": "dpa_chile.comuna", "pk": "13605", "fields": {"tipo": "comuna", "nombre": "Pe\u00f1aflor", "lat": "-33.6141", "lng": "-70.8876", "url": "", "region": "13", "provincia": "136"}}, {"model": "dpa_chile.comuna", "pk": "14101", "fields": {"tipo": "comuna", "nombre": "Valdivia", "lat": "-39.8201", "lng": "-73.2457", "url": "", "region": "14", "provincia": "141"}}, {"model": "dpa_chile.comuna", "pk": "14102", "fields": {"tipo": "comuna", "nombre": "Corral", "lat": "-39.8892", "lng": "-73.433", "url": "", "region": "14", "provincia": "141"}}, {"model": "dpa_chile.comuna", "pk": "14103", "fields": {"tipo": "comuna", "nombre": "Lanco", "lat": "-39.4522", "lng": "-72.7747", "url": "", "region": "14", "provincia": "141"}}, {"model": "dpa_chile.comuna", "pk": "14104", "fields": {"tipo": "comuna", "nombre": "Los Lagos", "lat": "-39.8636", "lng": "-72.8124", "url": "", "region": "14", "provincia": "141"}}, {"model": "dpa_chile.comuna", "pk": "14105", "fields": {"tipo": "comuna", "nombre": "M\u00e1fil", "lat": "-39.6654", "lng": "-72.9575", "url": "", "region": "14", "provincia": "141"}}, {"model": "dpa_chile.comuna", "pk": "14106", "fields": {"tipo": "comuna", "nombre": "Mariquina", "lat": "-39.5399", "lng": "-72.9621", "url": "", "region": "14", "provincia": "141"}}, {"model": "dpa_chile.comuna", "pk": "14107", "fields": {"tipo": "comuna", "nombre": "Paillaco", "lat": "-40.0707", "lng": "-72.8708", "url": "", "region": "14", "provincia": "141"}}, {"model": "dpa_chile.comuna", "pk": "14108", "fields": {"tipo": "comuna", "nombre": "Panguipulli", "lat": "-39.6436", "lng": "-72.3365", "url": "", "region": "14", "provincia": "141"}}, {"model": "dpa_chile.comuna", "pk": "14201", "fields": {"tipo": "comuna", "nombre": "La Uni\u00f3n", "lat": "-40.2951", "lng": "-73.0829", "url": "", "region": "14", "provincia": "142"}}, {"model": "dpa_chile.comuna", "pk": "14202", "fields": {"tipo": "comuna", "nombre": "Futrono", "lat": "-40.1243", "lng": "-72.393", "url": "", "region": "14", "provincia": "142"}}, {"model": "dpa_chile.comuna", "pk": "14203", "fields": {"tipo": "comuna", "nombre": "Lago Ranco", "lat": "-40.312", "lng": "-72.5002", "url": "", "region": "14", "provincia": "142"}}, {"model": "dpa_chile.comuna", "pk": "14204", "fields": {"tipo": "comuna", "nombre": "R\u00edo Bueno", "lat": "-40.333", "lng": "-72.9513", "url": "", "region": "14", "provincia": "142"}}, {"model": "dpa_chile.comuna", "pk": "15101", "fields": {"tipo": "comuna", "nombre": "Arica", "lat": "-18.477", "lng": "-70.3221", "url": "", "region": "15", "provincia": "151"}}, {"model": "dpa_chile.comuna", "pk": "15102", "fields": {"tipo": "comuna", "nombre": "Camarones", "lat": "-19.0089", "lng": "-69.9074", "url": "", "region": "15", "provincia": "151"}}, {"model": "dpa_chile.comuna", "pk": "15201", "fields": {"tipo": "comuna", "nombre": "Putre", "lat": "-18.1798", "lng": "-69.5544", "url": "", "region": "15", "provincia": "152"}}, {"model": "dpa_chile.comuna", "pk": "15202", "fields": {"tipo": "comuna", "nombre": "General Lagos", "lat": "-17.8324", "lng": "-69.6094", "url": "", "region": "15", "provincia": "152"}}]